[{"id":"0591000001","isFromHubei":"否","name":"郑某某","province":"福建省","city":"福州市","district":"长乐区","street":"漳港街道仙岐村","age":0,"gender":"男","intimateContacts":"","leaveHubeiDate":"2020-01-20T16:00:00.000Z","leaveHubeiCity":"武汉市","attackDate":"2020-01-18T16:00:00.000Z","attackAddr":{"addr":"武汉市","coord":{"code":200,"count":"1","list":[{"addr":"武汉市","province":"湖北省","city":"武汉市","district":[],"longitude":"114.305392","latitude":"30.593098"}]}},"confirmDate":"2020-01-25T16:00:00.000Z","confirmHospital":{"addr":"长乐区医院","coord":{"code":200,"count":"1","list":[{"addr":"福建省福州市长乐区长乐区医院","province":"福建省","city":"福州市","district":"长乐区","longitude":"119.510086","latitude":"25.959955"}]}},"symptoms":"发热","intimateContactsCount":5,"travelData":[{"travelDate":43851,"travelMethod":"自驾","travelDetail":"","travelFrom":"武汉市","travelTo":"温州市"},{"travelDate":43851,"travelMethod":"自驾","travelDetail":"","travelFrom":"温州市","travelTo":"福州市"},{"travelDate":43853,"travelMethod":"自驾","travelDetail":"","travelFrom":"福州市长乐区仙岐村","travelTo":"长乐区医院"}],"eventData":[{"eventAddr":"长乐","eventContent":"接人","eventStartTime":43851,"eventEndTime":43853},{"eventAddr":"","eventContent":"","eventStartTime":43851,"eventEndTime":43853},{"eventAddr":"","eventContent":"","eventStartTime":43853,"eventEndTime":43853}],"urls":["http://www.hxnews.com/news/fj/fz/202002/04/1856417.shtml"],"status":"已审核"},{"id":"0591000002","isFromHubei":"否","name":"陈某某","province":"福建省","city":"福州市","district":"长乐区","street":"漳港街道龙峰村","age":0,"gender":"女","intimateContacts":"","leaveHubeiDate":"2020-01-20T16:00:00.000Z","leaveHubeiCity":"武汉市","attackDate":"2020-01-24T16:00:00.000Z","attackAddr":{"addr":"福州市长乐区漳港街道龙峰村","coord":{"code":200,"count":"1","list":[{"addr":"福州市长乐区漳港街道龙峰村","province":"福建省","city":"福州市","district":"长乐区","longitude":"119.627763","latitude":"25.927940"}]}},"confirmDate":"2020-01-28T16:00:00.000Z","confirmHospital":{"addr":"长乐区医院","coord":{"code":200,"count":"1","list":[{"addr":"福建省福州市长乐区长乐区医院","province":"福建省","city":"福州市","district":"长乐区","longitude":"119.510086","latitude":"25.959955"}]}},"symptoms":"发热","intimateContactsCount":3,"travelData":[{"travelDate":43851,"travelMethod":"飞机","travelDetail":"西部航空PN6219","travelFrom":"武汉市","travelTo":"漳港街道龙峰村家中"},{"travelDate":43855,"travelMethod":"急救车","travelDetail":"","travelFrom":"福州市长乐区龙峰村","travelTo":"长乐区医院"}],"eventData":[],"urls":["http://www.hxnews.com/news/fj/fz/202002/04/1856417.shtml"],"status":"已审核"},{"id":"0591000003","isFromHubei":"否","name":"周某","province":"福建省","city":"福州市","district":"长乐区","street":"航城街道航辉社区","age":0,"gender":"男","intimateContacts":"","leaveHubeiDate":"2020-01-16T16:00:00.000Z","leaveHubeiCity":"武汉市","attackDate":"2020-01-21T16:00:00.000Z","attackAddr":{"addr":"航城街道航辉社区","coord":{"code":200,"count":"1","list":[{"addr":"航城街道航辉社区","province":"福建省","city":"福州市","district":"长乐市","longitude":"119.503273","latitude":"25.955154"}]}},"confirmDate":"2020-01-28T16:00:00.000Z","confirmHospital":{"addr":"长乐区医院","coord":{"code":200,"count":"1","list":[{"addr":"福建省福州市长乐区长乐区医院","province":"福建省","city":"福州市","district":"长乐区","longitude":"119.510086","latitude":"25.959955"}]}},"symptoms":"发热伴咳嗽","intimateContactsCount":9,"travelData":[{"travelDate":43847,"travelMethod":"飞机","travelDetail":"厦门航空MF8594","travelFrom":"武汉市","travelTo":"航城街道航辉社区家中"},{"travelDate":43855,"travelMethod":"步行","travelDetail":"","travelFrom":"航城街道航辉社区家中","travelTo":"航城街道航辉社区其妹家"},{"travelDate":43856,"travelMethod":"自行车","travelDetail":"","travelFrom":"航城街道航辉社区家中","travelTo":"长乐区医院"}],"eventData":[],"urls":["http://www.hxnews.com/news/fj/fz/202002/04/1856417.shtml"],"status":"已审核"},{"id":"0591000004","isFromHubei":"否","name":"陈某某","province":"福建省","city":"福州市","district":"长乐区","street":"航城街道航辉社区","age":0,"gender":"女","intimateContacts":"0591000003","leaveHubeiDate":"2020-01-16T16:00:00.000Z","leaveHubeiCity":"武汉市","attackDate":"2020-01-28T16:00:00.000Z","attackAddr":{"addr":"航城街道航辉社区","coord":{"code":200,"count":"1","list":[{"addr":"航城街道航辉社区","province":"福建省","city":"福州市","district":"长乐市","longitude":"119.503273","latitude":"25.955154"}]}},"confirmDate":"2020-01-31T16:00:00.000Z","confirmHospital":{"addr":"长乐区医院","coord":{"code":200,"count":"1","list":[{"addr":"福建省福州市长乐区长乐区医院","province":"福建省","city":"福州市","district":"长乐区","longitude":"119.510086","latitude":"25.959955"}]}},"symptoms":"咳嗽","intimateContactsCount":1,"travelData":[{"travelDate":43847,"travelMethod":"飞机","travelDetail":"厦门航空MF8594","travelFrom":"武汉市","travelTo":"航城街道航辉社区家中"}],"eventData":[],"urls":["http://www.hxnews.com/news/fj/fz/202002/04/1856417.shtml"],"status":"已审核"},{"id":"0591000005","isFromHubei":"否","name":"任某某","province":"福建省","city":"福州市","district":"连江县","street":"官坂镇北营村","age":0,"gender":"男","intimateContacts":"","leaveHubeiDate":"2020-01-16T16:00:00.000Z","leaveHubeiCity":"武汉市","attackDate":"2020-01-21T16:00:00.000Z","attackAddr":{"addr":"官坂镇北营村","coord":{"code":200,"count":"1","list":[{"addr":"官坂镇北营村","province":"福建省","city":"福州市","district":"连江县","longitude":"119.668732","latitude":"26.345074"}]}},"confirmDate":"2020-01-21T16:00:00.000Z","confirmHospital":{"addr":"连江县医院","coord":{"code":200,"count":"1","list":[{"addr":"福建省福州市连江县连江县医院","province":"福建省","city":"福州市","district":"连江县","longitude":"119.535828","latitude":"26.194025"}]}},"symptoms":"身体不适","intimateContactsCount":55,"travelData":[{"travelDate":43847,"travelMethod":"飞机","travelDetail":"西部航空PN6219","travelFrom":"武汉市","travelTo":"官坂镇北营村"},{"travelDate":43848,"travelMethod":"","travelDetail":"","travelFrom":"官坂镇北营村","travelTo":"官坂镇北营村"},{"travelDate":43850,"travelMethod":"自驾","travelDetail":"","travelFrom":"官坂镇北营村","travelTo":"县医院"}],"eventData":[{"eventAddr":"","eventContent":"就诊时出门","eventStartTime":43848,"eventEndTime":43849},{"eventAddr":"","eventContent":"患者弟弟开私家车送去医院门诊治疗","eventStartTime":"","eventEndTime":""}],"urls":["http://www.hxnews.com/news/fj/fj/202002/03/1855992.shtml"],"status":"已审核"},{"id":"0591000006","isFromHubei":"否","name":"黄某","province":"福建省","city":"福州市","district":"连江县","street":"连江敖江镇长汀村","age":0,"gender":"男","intimateContacts":"","leaveHubeiDate":"2020-01-21T16:00:00.000Z","leaveHubeiCity":"武汉市","attackDate":"2020-01-25T16:00:00.000Z","attackAddr":{"addr":"官坂镇北营村","coord":{"code":200,"count":"1","list":[{"addr":"官坂镇北营村","province":"福建省","city":"福州市","district":"连江县","longitude":"119.668732","latitude":"26.345074"}]}},"confirmDate":"2020-01-27T16:00:00.000Z","confirmHospital":{"addr":"连江县医院","coord":{"code":200,"count":"1","list":[{"addr":"福建省福州市连江县连江县医院","province":"福建省","city":"福州市","district":"连江县","longitude":"119.535828","latitude":"26.194025"}]}},"symptoms":"咳嗽、胸闷、手和腿的肌肉偶有酸痛感","intimateContactsCount":40,"travelData":[{"travelDate":43852,"travelMethod":"未知","travelDetail":"没有登记交通工具使用何种","travelFrom":"武汉市","travelTo":"连江县宏宙花园"},{"travelDate":43852,"travelMethod":"","travelDetail":"","travelFrom":"连江县宏宙花园","travelTo":"马鼻镇拱头村"},{"travelDate":43853,"travelMethod":"","travelDetail":"","travelFrom":"马鼻镇拱头村","travelTo":"连江敖江镇长汀村"},{"travelDate":43856,"travelMethod":"","travelDetail":"","travelFrom":"连江敖江镇长汀村","travelTo":"连江县医院门诊"}],"eventData":[{"eventAddr":"","eventContent":"存放行李","eventStartTime":"","eventEndTime":""},{"eventAddr":"","eventContent":"前往岳父家","eventStartTime":"","eventEndTime":""},{"eventAddr":"","eventContent":"家附近棋牌室打牌或委员","eventStartTime":43853,"eventEndTime":43854}],"urls":["http://www.hxnews.com/news/fj/fj/202002/03/1855992.shtml"],"status":"已审核"},{"id":"0591000007","isFromHubei":"否","name":"任某某","province":"福建省","city":"福州市","district":"连江县","street":"官坂镇北营村","age":0,"gender":"男","intimateContacts":"0591000005","leaveHubeiDate":"2020-01-17T16:00:00.000Z","leaveHubeiCity":"武汉市","attackDate":"2020-01-25T16:00:00.000Z","attackAddr":{"addr":"官坂镇北营村","coord":{"code":200,"count":"1","list":[{"addr":"官坂镇北营村","province":"福建省","city":"福州市","district":"连江县","longitude":"119.668732","latitude":"26.345074"}]}},"confirmDate":"2020-01-27T16:00:00.000Z","confirmHospital":{"addr":"连江县医院","coord":{"code":200,"count":"1","list":[{"addr":"福建省福州市连江县连江县医院","province":"福建省","city":"福州市","district":"连江县","longitude":"119.535828","latitude":"26.194025"}]}},"symptoms":"发病","intimateContactsCount":28,"travelData":[{"travelDate":43848,"travelMethod":"动车","travelDetail":"D3262","travelFrom":"武汉市","travelTo":"福州市长乐机场"},{"travelDate":43848,"travelMethod":"私家车","travelDetail":"","travelFrom":"福州市长乐机场","travelTo":"连江县"},{"travelDate":43849,"travelMethod":"","travelDetail":"","travelFrom":"官坂镇北营村","travelTo":"官坂镇北营村"},{"travelDate":43852,"travelMethod":"","travelDetail":"","travelFrom":"官坂镇北营村","travelTo":"官坂中心卫生院"},{"travelDate":43856,"travelMethod":"","travelDetail":"","travelFrom":"官坂中心卫生院","travelTo":"连江县医院门诊"}],"eventData":[{"eventAddr":"","eventContent":"坐私家车回家","eventStartTime":"","eventEndTime":""},{"eventAddr":"任某家中","eventContent":"3次前往任某家中打牌","eventStartTime":43849,"eventEndTime":43851}],"urls":["http://www.hxnews.com/news/fj/fj/202002/03/1855992.shtml"],"status":"已审核"},{"id":"0591000008","isFromHubei":"否","name":"厉某","province":"福建省","city":"福州市","district":"连江县","street":"潘渡","age":0,"gender":"女","intimateContacts":"","leaveHubeiDate":"","leaveHubeiCity":"","attackDate":"2020-01-27T16:00:00.000Z","attackAddr":{"addr":"福州市贵安","coord":{"code":200,"count":"1","list":[{"addr":"福州市贵安","province":"福建省","city":"福州市","district":[],"longitude":"119.296494","latitude":"26.074507"}]}},"confirmDate":"2020-01-29T16:00:00.000Z","confirmHospital":{"addr":"连江县医院","coord":{"code":200,"count":"1","list":[{"addr":"福建省福州市连江县连江县医院","province":"福建省","city":"福州市","district":"连江县","longitude":"119.535828","latitude":"26.194025"}]}},"symptoms":"发热","intimateContactsCount":10,"travelData":[{"travelDate":43856,"travelMethod":"公交车","travelDetail":"","travelFrom":"河南省信阳市","travelTo":"河南省信阳市信阳站"},{"travelDate":43856,"travelMethod":"高铁","travelDetail":"","travelFrom":"河南省信阳市信阳站","travelTo":"福州市"},{"travelDate":43856,"travelMethod":"自驾","travelDetail":"","travelFrom":"福州市","travelTo":"连江潘渡"},{"travelDate":43858,"travelMethod":"","travelDetail":"","travelFrom":"连江潘渡","travelTo":"连江县医院"},{"travelDate":43858,"travelMethod":"","travelDetail":"","travelFrom":"连江县医院","travelTo":"福州市贵安"},{"travelDate":43858,"travelMethod":"","travelDetail":"","travelFrom":"福州市贵安","travelTo":"连江县医院"}],"eventData":[{"eventAddr":"","eventContent":"患者夫妻及其儿子搭公交去信阳站","eventStartTime":"","eventEndTime":""},{"eventAddr":"","eventContent":"丈夫私车回到连江住处","eventStartTime":"","eventEndTime":""},{"eventAddr":"","eventContent":"发热去就诊","eventStartTime":"","eventEndTime":""},{"eventAddr":"","eventContent":"返回贵安居住地","eventStartTime":"","eventEndTime":""},{"eventAddr":"","eventContent":"再次发热去就诊","eventStartTime":"","eventEndTime":""}],"urls":["http://www.hxnews.com/news/fj/fj/202002/03/1855992.shtml"],"status":"已审核"},{"id":"0591000009","isFromHubei":"否","name":"陈某某","province":"福建省","city":"福州市","district":"连江县","street":"马鼻墙兜村","age":0,"gender":"男","intimateContacts":"","leaveHubeiDate":"2020-01-19T16:00:00.000Z","leaveHubeiCity":"武汉市","attackDate":"2020-01-22T16:00:00.000Z","attackAddr":{"addr":"马鼻墙兜村","coord":{"code":200,"count":"1","list":[{"addr":"马鼻墙兜村","province":"浙江省","city":"温州市","district":"苍南县","longitude":"120.520226","latitude":"27.248667"}]}},"confirmDate":"2020-01-30T16:00:00.000Z","confirmHospital":{"addr":"连江县医院","coord":{"code":200,"count":"1","list":[{"addr":"福建省福州市连江县连江县医院","province":"福建省","city":"福州市","district":"连江县","longitude":"119.535828","latitude":"26.194025"}]}},"symptoms":"罗源县医院","intimateContactsCount":8,"travelData":[{"travelDate":43850,"travelMethod":"自驾","travelDetail":"","travelFrom":"武汉市汉口","travelTo":"马鼻墙兜村"},{"travelDate":43853,"travelMethod":"","travelDetail":"","travelFrom":"马鼻墙兜村","travelTo":"马鼻卫生院"},{"travelDate":43857,"travelMethod":"","travelDetail":"","travelFrom":"马鼻墙兜村","travelTo":"马鼻卫生院"}],"eventData":[{"eventAddr":"","eventContent":"因乏力、酸痛就诊，后返家","eventStartTime":"","eventEndTime":""},{"eventAddr":"","eventContent":"因乏力、酸痛再次就诊，后转县医院","eventStartTime":"","eventEndTime":""}],"urls":["http://www.hxnews.com/news/fj/fj/202002/03/1855992.shtml"],"status":"已审核"},{"id":"0591000010","isFromHubei":"否","name":"刘某","province":"福建省","city":"福州市","district":"连江县","street":"透堡镇龙头村","age":0,"gender":"男","intimateContacts":"","leaveHubeiDate":"2020-01-18T16:00:00.000Z","leaveHubeiCity":"武汉市","attackDate":"2020-01-28T16:00:00.000Z","attackAddr":{"addr":"透堡镇龙头村","coord":{"code":200,"count":"1","list":[{"addr":"透堡镇龙头村","province":"福建省","city":"福州市","district":"连江县","longitude":"119.659859","latitude":"26.349014"}]}},"confirmDate":"2020-01-30T16:00:00.000Z","confirmHospital":{"addr":"连江县医院","coord":{"code":200,"count":"1","list":[{"addr":"福建省福州市连江县连江县医院","province":"福建省","city":"福州市","district":"连江县","longitude":"119.535828","latitude":"26.194025"}]}},"symptoms":"发热","intimateContactsCount":28,"travelData":[{"travelDate":43849,"travelMethod":"飞机","travelDetail":"西部航空PN6219","travelFrom":"武汉市","travelTo":"透堡镇龙头村"},{"travelDate":43849,"travelMethod":"","travelDetail":"","travelFrom":"透堡镇龙头村","travelTo":"透堡镇龙头村"},{"travelDate":43850,"travelMethod":"","travelDetail":"","travelFrom":"透堡镇龙头村","travelTo":"透堡镇龙头村"},{"travelDate":43851,"travelMethod":"","travelDetail":"","travelFrom":"透堡镇龙头村","travelTo":"透堡镇龙头村"},{"travelDate":43859,"travelMethod":"","travelDetail":"","travelFrom":"透堡镇龙头村","travelTo":"透堡镇卫生院"}],"eventData":[{"eventAddr":"","eventContent":"一家三口乘网约车去机场，到福州后乘坐哥哥私家车前往居住地","eventStartTime":"","eventEndTime":""},{"eventAddr":"","eventContent":"参加亲戚婚宴","eventStartTime":"","eventEndTime":""},{"eventAddr":"家中","eventContent":"患者朋友来患者居住地交谈","eventStartTime":"","eventEndTime":""},{"eventAddr":"","eventContent":"戴口罩单独不行前往透堡超市购物市场买菜","eventStartTime":43851,"eventEndTime":43853}],"urls":["http://www.hxnews.com/news/fj/fj/202002/03/1855992.shtml"],"status":"已审核"},{"id":"0591000011","isFromHubei":"否","name":"林某","province":"福建省","city":"福州市","district":"连江县","street":"马鼻镇东湾村","age":0,"gender":"女","intimateContacts":"","leaveHubeiDate":"2020-01-05T16:00:00.000Z","leaveHubeiCity":"武汉市","attackDate":"2020-01-09T16:00:00.000Z","attackAddr":{"addr":"罗源县","coord":{"code":200,"count":"1","list":[{"addr":"罗源县","province":"福建省","city":"福州市","district":"罗源县","longitude":"119.549776","latitude":"26.489559"}]}},"confirmDate":"2020-01-30T16:00:00.000Z","confirmHospital":{"addr":"罗源县医院","coord":{"code":200,"count":"1","list":[{"addr":"福建省福州市连江县罗源县医院","province":"福建省","city":"福州市","district":"连江县","longitude":"119.539704","latitude":"26.197364"}]}},"symptoms":"喉咙干、咳嗽","intimateContactsCount":3,"travelData":[{"travelDate":43836,"travelMethod":"","travelDetail":"","travelFrom":"武汉市","travelTo":"福建罗源县"},{"travelDate":43840,"travelMethod":"","travelDetail":"","travelFrom":"福建罗源县","travelTo":"罗源县中医院"},{"travelDate":43853,"travelMethod":"公交车","travelDetail":"","travelFrom":"福建罗源县","travelTo":"马鼻镇东湾村"},{"travelDate":43859,"travelMethod":"","travelDetail":"","travelFrom":"马鼻镇东湾村","travelTo":"东湾卫生所"},{"travelDate":43860,"travelMethod":"自驾","travelDetail":"","travelFrom":"马鼻镇东湾村","travelTo":"罗源县医院"}],"eventData":[{"eventAddr":"","eventContent":"返回娘家","eventStartTime":"","eventEndTime":""},{"eventAddr":"","eventContent":"就诊罗源县中医院","eventStartTime":"","eventEndTime":""},{"eventAddr":"","eventContent":"返回夫家","eventStartTime":"","eventEndTime":""},{"eventAddr":"","eventContent":"前往东湾卫生所就诊，后前往马鼻卫生院，后返回居住地","eventStartTime":"","eventEndTime":""},{"eventAddr":"","eventContent":"坐丈夫私家车至罗源县医院就诊，后步行前往罗源中医院就诊后，返回县医院就诊","eventStartTime":"","eventEndTime":""}],"urls":["http://www.hxnews.com/news/fj/fj/202002/03/1855992.shtml"],"status":"已审核"}]